,City,Country,Date,Latitude,Longitude,Max Temperature,Humidity,Cloudiness,Wind Speed
0,burlatskoye,RU,1612079537,45.0564,43.635,4.03,83,100,4.23
1,saint-philippe,RE,1612079537,-21.3585,55.7679,32.0,58,0,11.83
2,busselton,AU,1612079537,-33.65,115.3333,33.33,43,0,4.02
3,karratha,AU,1612079537,-20.7377,116.8463,31.9,58,100,9.21
4,balaipungut,ID,1612079538,1.05,101.2833,30.0,58,40,0.45
5,bambous virieux,MU,1612079538,-20.3428,57.7575,30.56,66,75,5.14
6,mugur-aksy,RU,1612079538,50.35,90.5,-8.85,83,0,2.14
7,mataura,NZ,1612079538,-46.1927,168.8643,14.94,70,100,0.67
8,alofi,NU,1612079399,-19.0595,-169.9187,25.0,88,100,2.57
9,bethel,US,1612079538,41.3712,-73.414,-10.56,80,27,2.29
10,cape town,ZA,1612079458,-33.9258,18.4232,22.22,83,90,6.69
11,groa,NO,1612079539,62.65,8.7167,-1.0,93,90,1.54
12,mar del plata,AR,1612079539,-38.0023,-57.5575,15.56,58,75,6.17
13,eyl,SO,1612079539,7.9803,49.8164,25.86,61,100,7.59
14,bilibino,RU,1612079539,68.0546,166.4372,-32.49,78,70,3.07
15,tucuman,AR,1612079539,-26.8241,-65.2226,20.0,94,90,2.06
16,albany,US,1612079539,42.6001,-73.9662,-12.78,59,16,1.99
17,geraldton,AU,1612079472,-28.7667,114.6,35.0,24,0,11.32
18,saint george,US,1612079330,37.1041,-113.5841,2.22,80,1,1.26
19,katsuura,JP,1612079358,35.1333,140.3,11.11,34,20,6.69
20,tayoltita,MX,1612079540,24.0833,-105.9333,15.84,45,4,2.6
21,yellowknife,CA,1612079540,62.456,-114.3525,-26.67,76,1,2.06
22,castro,BR,1612079363,-24.7911,-50.0119,17.92,95,100,2.07
23,mitsamiouli,KM,1612079540,-11.3847,43.2844,28.87,72,75,5.13
24,bredasdorp,ZA,1612079540,-34.5322,20.0403,26.11,64,0,3.13
25,korsakovo,RU,1612079541,53.2677,37.3569,-2.48,99,100,4.51
26,kodiak,US,1612079541,57.79,-152.4072,-2.0,59,1,7.2
27,locri,IT,1612079541,38.2414,16.2623,15.0,67,75,6.17
28,borovichi,RU,1612079541,58.3878,33.9155,-6.39,97,100,2.73
29,kristiansund,NO,1612079541,63.1115,7.732,-1.0,93,90,1.54
30,svetlyy,RU,1612079541,54.675,20.1347,1.11,86,75,4.0
31,pietersburg,ZA,1612079541,-23.9045,29.4688,24.0,69,59,3.09
32,meulaboh,ID,1612079541,4.1363,96.1285,29.27,67,22,3.7
33,rikitea,PF,1612079542,-23.1203,-134.9692,25.95,77,43,4.35
34,norman wells,CA,1612079542,65.282,-126.8329,-30.0,76,75,1.03
35,sao filipe,CV,1612079542,14.8961,-24.4956,22.72,62,88,4.33
36,kaeo,NZ,1612079542,-35.1,173.7833,18.33,73,1,0.89
37,georgetown,MY,1612079542,5.4112,100.3354,32.0,51,20,3.6
38,chalmette,US,1612079542,29.9427,-89.9634,20.56,82,90,3.6
39,puerto ayora,EC,1612079542,-0.7393,-90.3518,25.0,92,19,2.24
40,port elizabeth,ZA,1612079542,-33.918,25.5701,24.0,60,0,2.57
41,adrar,MR,1612079317,20.5022,-10.0711,16.71,29,37,3.68
42,punta arenas,CL,1612079543,-53.15,-70.9167,9.0,71,0,6.69
43,shingu,JP,1612079321,33.7333,135.9833,11.0,43,20,5.14
44,ostrovnoy,RU,1612079484,68.0531,39.5131,-8.97,94,93,4.52
45,avarua,CK,1612079397,-21.2078,-159.775,25.0,88,75,2.06
46,kapaa,US,1612079543,22.0752,-159.319,23.0,83,40,9.26
47,sicamous,CA,1612079543,50.8331,-118.9856,1.0,93,100,1.03
48,bandarbeyla,SO,1612079544,9.4942,50.8122,25.38,58,38,7.55
49,acapulco,MX,1612079325,16.8634,-99.8901,23.73,81,94,1.57
50,thompson,CA,1612079544,55.7435,-97.8558,-11.0,92,90,1.03
51,ancud,CL,1612079545,-41.8697,-73.8203,8.89,93,0,3.09
52,bucak,TR,1612079365,37.4592,30.595,13.0,93,75,2.06
53,coihaique,CL,1612079545,-45.5752,-72.0662,6.0,87,0,0.7
54,atuona,PF,1612079545,-9.8,-139.0333,26.28,74,67,9.02
55,dikson,RU,1612079546,73.5069,80.5464,-35.71,79,0,2.87
56,qaanaaq,GL,1612079546,77.484,-69.3632,-19.64,88,100,0.29
57,alvaraes,BR,1612079546,-3.2208,-64.8042,22.14,99,68,1.02
58,gamba,GA,1612079546,-2.65,10.0,25.99,82,100,0.48
59,baishishan,CN,1612079368,43.5833,127.5667,-9.14,95,100,1.18
60,hithadhoo,MV,1612079546,-0.6,73.0833,28.01,76,71,7.26
61,hobart,AU,1612079315,-42.8794,147.3294,19.0,48,40,5.14
62,provideniya,RU,1612079546,64.3833,-173.3,-22.88,87,100,9.41
63,elizabeth city,US,1612079547,36.2946,-76.2511,1.11,80,90,2.04
64,ushuaia,AR,1612079547,-54.8,-68.3,7.0,76,20,3.6
65,mana,GF,1612079547,5.6592,-53.7767,24.8,85,12,5.62
66,qandala,SO,1612079390,11.472,49.8728,23.99,55,2,2.79
67,coahuayana,MX,1612079547,18.7333,-103.6833,22.37,82,0,1.29
68,hermanus,ZA,1612079374,-34.4187,19.2345,26.11,64,11,3.13
69,lagunas,PE,1612079547,-5.2269,-75.6753,22.42,91,76,0.42
70,khatanga,RU,1612079548,71.9667,102.5,-44.33,78,46,0.98
71,deputatskiy,RU,1612079548,69.3,139.9,-34.1,87,100,1.04
72,tuktoyaktuk,CA,1612079548,69.4541,-133.0374,-29.33,84,99,0.61
73,port alfred,ZA,1612079548,-33.5906,26.891,24.44,76,99,0.95
74,saint-pierre,RE,1612079548,-21.3393,55.4781,32.0,58,0,11.83
75,bluff,NZ,1612079548,-46.6,168.3333,13.78,78,100,2.07
76,vrangel,RU,1612079549,42.7297,133.0839,-8.96,81,38,1.94
77,torbay,CA,1612079549,47.6666,-52.7314,-1.11,93,90,8.23
78,jiaojiang,CN,1612079367,28.6803,121.4428,20.0,68,21,0.89
79,puerto baquerizo moreno,EC,1612079549,-0.9,-89.6,24.63,85,22,3.85
80,bambanglipuro,ID,1612079549,-7.95,110.2833,29.31,68,97,3.72
81,ormara,PK,1612079549,25.2088,64.6357,22.61,56,0,6.32
82,pando,UY,1612079317,-34.7167,-55.95,19.0,72,90,7.72
83,romny,UA,1612079550,50.751,33.4747,-3.64,97,100,6.32
84,hambantota,LK,1612079550,6.1241,81.1185,32.0,66,75,5.14
85,itoman,JP,1612079359,26.1247,127.6694,20.0,52,40,4.63
86,sitka,US,1612079550,57.0531,-135.33,2.0,69,1,2.92
87,candido mendes,BR,1612079550,-1.4467,-45.7167,23.84,92,88,1.53
88,muros,ES,1612079550,42.7762,-9.0603,14.44,93,100,2.24
89,new norfolk,AU,1612079551,-42.7826,147.0587,18.89,48,66,0.89
90,santander,ES,1612079544,43.4647,-3.8044,13.0,71,75,5.66
91,menongue,AO,1612079374,-14.6585,17.691,22.16,76,100,3.51
92,carnarvon,AU,1612079401,-24.8667,113.6333,31.0,62,2,7.72
93,port keats,AU,1612079552,-14.25,129.55,26.85,86,100,4.27
94,kenai,US,1612079552,60.5544,-151.2583,-11.11,85,1,2.06
95,kodinsk,RU,1612079392,58.6881,99.1844,-33.12,79,69,1.12
96,dali,CN,1612079552,25.7,100.1833,13.3,44,56,4.39
97,coolum beach,AU,1612079553,-26.5333,153.1,25.0,93,9,0.45
98,yeppoon,AU,1612079553,-23.1333,150.7333,29.0,54,28,5.66
99,pisco,PE,1612079397,-13.7,-76.2167,21.0,73,0,2.06
100,chokurdakh,RU,1612079553,70.6333,147.9167,-35.31,85,30,4.15
101,starkville,US,1612079380,33.4504,-88.8184,13.89,100,90,1.54
102,ribeira grande,PT,1612079553,38.5167,-28.7,17.0,100,75,4.63
103,ahipara,NZ,1612079484,-35.1667,173.1667,17.25,74,8,1.52
104,birjand,IR,1612079553,32.8663,59.2211,12.0,37,20,5.14
105,at-bashi,KG,1612079374,41.1702,75.8106,-3.0,82,65,0.56
106,camachile,PH,1612079554,14.6436,120.5808,30.0,45,40,7.72
107,seymchan,RU,1612079554,62.8833,152.4333,-33.93,81,100,3.9
108,la ronge,CA,1612079554,55.1001,-105.2842,-11.0,79,24,0.72
109,bairiki,KI,1612079554,1.3292,172.9752,27.0,83,40,3.09
110,port hedland,AU,1612079218,-20.3167,118.5667,34.0,52,75,7.72
111,salumbar,IN,1612079335,24.1333,74.05,23.0,20,0,2.06
112,sinnamary,GF,1612079554,5.3833,-52.95,25.08,84,58,6.17
113,cravo norte,CO,1612079555,6.3017,-70.2041,25.16,62,58,2.47
114,klaksvik,FO,1612079555,62.2266,-6.589,-1.0,74,71,3.6
115,liuzhou,CN,1612079320,24.3126,109.3892,23.77,37,36,3.4
116,vaini,TO,1612079555,-21.2,-175.2,26.0,94,75,2.57
117,segou,ML,1612079325,13.4317,-6.2157,19.34,24,0,4.28
118,khurda,IN,1612079555,20.1833,85.6167,26.0,38,85,2.57
119,mecca,SA,1612079100,21.4267,39.8261,24.98,28,6,1.0
120,bengkulu,ID,1612079262,-3.8004,102.2655,27.5,74,100,4.13
121,warmbad,NA,1612079555,-28.45,18.7333,24.78,25,0,1.81
122,kahului,US,1612079556,20.8947,-156.47,21.0,83,20,5.66
123,utrecht,NL,1612079538,52.0,5.25,-3.89,93,45,0.89
124,samarai,PG,1612079556,-10.6167,150.6667,29.08,74,100,8.26
125,salinas,US,1612079384,36.6777,-121.6555,10.0,87,90,1.36
126,cockburn town,TC,1612079467,21.4612,-71.1419,22.98,72,2,9.01
127,bayangol,RU,1612079556,50.6977,103.4656,-21.32,78,2,3.12
128,victoria,HK,1612079553,22.2855,114.1577,25.0,46,20,3.6
129,ayagoz,KZ,1612079352,47.9714,80.4392,-5.01,91,16,5.32
130,jamestown,US,1612079381,42.097,-79.2353,-6.11,73,90,3.09
131,tiksi,RU,1612079557,71.6872,128.8694,-32.35,87,100,2.42
132,clyde river,CA,1612079557,70.4692,-68.5914,-18.0,78,90,1.54
133,mangai,CD,1612079321,-4.05,19.5333,20.85,98,100,2.09
134,broome,US,1612079557,42.2506,-75.833,-12.0,85,75,1.54
135,iquique,CL,1612079376,-20.2208,-70.1431,20.0,68,0,3.6
136,tautira,PF,1612079557,-17.7333,-149.15,26.0,73,75,1.54
137,port blair,IN,1612079557,11.6667,92.75,28.36,67,0,5.0
138,traverse city,US,1612079558,44.7631,-85.6206,-3.0,63,90,3.09
139,nikolskoye,RU,1612079558,59.7035,30.7861,-4.0,93,75,1.0
140,cambridge,CA,1612079558,43.3601,-80.3127,-7.22,86,75,3.09
141,nyurba,RU,1612079558,63.2842,118.3319,-42.82,78,65,0.83
142,solnechnyy,RU,1612079558,50.7214,136.6319,-24.2,87,98,2.38
143,rundu,NA,1612079558,-17.9333,19.7667,21.06,87,100,3.28
144,marawi,PH,1612079558,7.9986,124.2928,27.22,84,91,5.81
145,oga,IT,1612079558,46.4631,10.347,7.22,100,90,2.93
146,vila franca do campo,PT,1612079559,37.7167,-25.4333,17.22,100,75,6.69
147,lusambo,CD,1612079559,-4.9667,23.45,23.76,92,100,1.59
148,igboho,NG,1612079559,8.8333,3.75,24.91,18,35,1.69
149,novikovo,RU,1612079559,51.1537,37.8879,2.3,97,100,6.19
150,porto belo,BR,1612079559,-27.1578,-48.5531,25.56,85,63,0.89
151,natal,BR,1612079559,-5.795,-35.2094,25.0,88,75,2.57
152,atambua,ID,1612079396,-9.1061,124.8925,25.37,85,100,3.98
153,ust-kishert,RU,1612079559,57.3654,57.2495,-4.31,97,97,4.45
154,balkanabat,TM,1612079329,39.5108,54.3671,11.64,59,72,1.72
155,altus,US,1612079379,34.6381,-99.334,5.0,65,1,6.17
156,voi,KE,1612079560,-3.3945,38.563,27.57,54,30,4.8
157,ivanovka,KG,1612079560,42.8878,75.085,6.0,52,0,3.0
158,kavieng,PG,1612079560,-2.5744,150.7967,28.37,74,100,4.98
159,mahebourg,MU,1612079560,-20.4081,57.7,30.0,66,75,5.14
160,perth,AU,1612078930,-31.9333,115.8333,37.0,15,0,6.17
161,east london,ZA,1612079560,-33.0153,27.9116,22.0,88,90,2.57
162,khonsa,IN,1612079560,27.0167,95.5667,17.27,53,24,1.76
163,hennebont,FR,1612079561,47.8051,-3.2734,10.0,100,90,2.57
164,nichinan,JP,1612079359,31.6,131.3667,13.0,47,20,4.12
165,cherskiy,RU,1612079561,68.75,161.3,-37.22,83,0,0.72
166,faanui,PF,1612079561,-16.4833,-151.75,27.88,72,100,5.39
167,zelenoborskiy,RU,1612079561,66.845,32.3622,-12.22,96,100,1.68
168,luau,AO,1612079374,-10.7073,22.2247,23.64,87,77,1.33
169,kaitangata,NZ,1612079561,-46.2817,169.8464,13.65,87,100,0.97
170,san patricio,US,1612079562,28.017,-97.5169,18.0,100,1,3.59
171,canton,CN,1612079341,23.1167,113.25,25.0,36,0,2.0
172,mahon,ES,1612079562,39.8885,4.2658,12.0,62,0,7.2
173,poretskoye,RU,1612079562,55.1974,46.3291,1.59,87,100,8.06
174,butaritari,KI,1612079562,3.0707,172.7902,27.49,80,81,7.3
175,college,US,1612079562,64.8569,-147.8028,-20.56,77,90,0.62
176,dunedin,NZ,1612079506,-45.8742,170.5036,15.0,83,30,4.02
177,tudela,ES,1612079563,42.0617,-1.6045,10.0,62,90,7.2
178,hilo,US,1612079563,19.7297,-155.09,21.0,78,20,2.57
179,matongo,TZ,1612079563,-2.3833,34.0833,25.74,56,24,3.06
180,kijang,KR,1612079387,35.2442,129.2139,12.0,22,0,4.12
181,santa isabel do rio negro,BR,1612079563,-0.4139,-65.0192,22.26,98,25,0.95
182,wamba,NG,1612079563,8.9333,8.6,27.08,16,0,1.52
183,upernavik,GL,1612079563,72.7868,-56.1549,-23.13,84,44,1.36
184,tasiilaq,GL,1612079563,65.6145,-37.6368,-9.0,57,75,1.54
185,longyearbyen,SJ,1612079564,78.2186,15.6401,-21.0,54,20,7.2
186,benghazi,LY,1612079365,32.1167,20.0667,17.57,59,0,8.73
187,west wendover,US,1612079564,40.7391,-114.0733,-3.0,74,1,1.54
188,rio grande,BR,1612079364,-32.035,-52.0986,20.0,99,100,3.37
189,sabha,LY,1612079365,27.0377,14.4283,16.93,32,0,5.85
190,port lincoln,AU,1612079317,-34.7333,135.8667,20.04,59,49,4.76
191,dicabisagan,PH,1612079564,17.0818,122.4157,22.17,82,100,5.36
192,talara,PE,1612079397,-4.5772,-81.2719,24.86,67,1,4.42
193,codrington,AU,1612079565,-38.2667,141.9667,17.11,66,0,5.81
194,bago,MM,1612079326,17.3367,96.4797,34.0,38,20,5.14
195,mount isa,AU,1612079369,-20.7333,139.5,39.0,22,40,4.12
196,umm lajj,SA,1612079565,25.0213,37.2685,22.69,28,0,4.38
197,iskateley,RU,1612079565,67.6803,53.1512,-15.56,94,100,5.31
198,cidreira,BR,1612079565,-30.1811,-50.2056,22.9,92,99,5.53
199,chuy,UY,1612079325,-33.6971,-53.4616,20.95,86,100,6.81
200,denpasar,ID,1612078880,-8.65,115.2167,30.0,70,20,7.2
201,port hardy,CA,1612079566,50.6996,-127.4199,7.0,87,90,10.8
202,morehead,US,1612079566,37.2711,-87.1764,7.22,81,90,6.69
203,barrow,US,1612079566,71.2906,-156.7887,-28.0,69,90,3.09
204,pianezza,IT,1612079566,45.1058,7.5434,4.44,100,74,1.54
205,acajutla,SV,1612079358,13.5928,-89.8275,24.5,65,67,3.29
206,sydney,AU,1612078937,-33.8679,151.2073,22.0,83,90,6.69
207,vagur,FO,1612079567,61.4732,-6.8119,1.37,83,28,7.72
208,zabol,AF,1612079567,32.25,67.25,12.45,35,50,9.6
209,belle glade,US,1612079378,26.6845,-80.6676,18.33,95,16,4.27
210,hami,CN,1612079567,42.8,93.45,1.28,69,0,1.69
211,auki,SB,1612079327,-8.7676,160.7034,26.93,82,100,6.17
212,beba,CU,1612079567,22.4437,-79.7253,15.0,94,1,1.03
213,lavrentiya,RU,1612079567,65.5833,-171.0,-23.54,86,100,4.32
214,constitucion,CL,1612079568,-35.3333,-72.4167,14.23,89,15,3.17
215,souillac,MU,1612079568,-20.5167,57.5167,30.0,66,75,5.14
216,padang,ID,1612079568,-0.9492,100.3543,28.22,68,100,1.54
217,niamey,NE,1612079326,13.5137,2.1098,20.0,21,0,2.06
218,sao raimundo nonato,BR,1612079364,-9.0153,-42.6994,19.55,94,25,1.31
219,gavrilovka vtoraya,RU,1612079569,52.877,42.7663,1.29,95,100,10.76
220,arraial do cabo,BR,1612079363,-22.9661,-42.0278,24.06,83,51,10.81
221,abu dhabi,AE,1612079438,24.4667,54.3667,24.0,64,20,5.66
222,inhapim,BR,1612079569,-19.5492,-42.12,17.67,94,75,1.03
223,lethem,GY,1612079569,3.3803,-59.7968,24.48,81,62,4.46
224,urumqi,CN,1612079321,43.801,87.6005,-14.0,85,20,1.0
225,port-gentil,GA,1612079457,-0.7193,8.7815,26.0,89,40,1.03
226,ouadda,CF,1612079570,8.0777,22.4007,29.09,15,31,4.41
227,turukhansk,RU,1612079570,65.8167,87.9833,-28.94,81,100,3.71
228,lompoc,US,1612079570,34.6391,-120.4579,8.89,93,1,2.06
229,kurilsk,RU,1612079570,45.2333,147.8833,-7.83,95,100,11.21
230,awjilah,LY,1612079570,29.1081,21.2869,19.53,33,0,6.03
231,bogovarovo,RU,1612079570,58.9785,47.0246,-6.47,97,100,4.59
232,san benito,US,1612079571,36.6166,-121.0844,8.89,87,0,0.45
233,ilanskiy,RU,1612079392,56.2358,96.065,-31.2,82,37,1.17
234,husavik,IS,1612079571,66.0449,-17.3389,-10.0,79,75,1.03
235,dhandhuka,IN,1612079571,22.3667,71.9833,29.76,13,0,2.76
236,sambava,MG,1612079571,-14.2667,50.1667,28.74,69,26,4.08
237,bakchar,RU,1612079571,57.0186,82.0711,-23.77,88,100,2.71
238,thinadhoo,MV,1612079571,0.5333,72.9333,27.98,75,75,6.75
239,hanzhong,CN,1612079321,33.0728,107.0303,14.61,32,18,1.4
240,honningsvag,NO,1612079572,70.9821,25.9704,-3.0,86,75,8.23
241,quatre cocos,MU,1612079572,-20.2078,57.7625,30.56,66,75,5.14
242,bogale,MM,1612079572,16.2833,95.4,33.94,27,23,1.89
243,broken hill,AU,1612079572,-31.95,141.4333,31.0,22,64,6.17
244,siniscola,IT,1612079572,40.5719,9.6922,12.0,71,40,11.83
245,tuatapere,NZ,1612079572,-46.1333,167.6833,14.25,74,100,0.53
246,namibe,AO,1612079573,-15.1961,12.1522,23.0,73,75,2.57
247,kruisfontein,ZA,1612079573,-34.0033,24.7314,27.78,49,0,0.89
248,jalu,LY,1612079573,29.0331,21.5482,19.38,34,0,5.51
249,ranong,TH,1612079328,9.9658,98.6348,32.0,51,20,4.12
250,genhe,CN,1612079368,50.7833,121.5167,-24.31,84,96,0.91
251,henties bay,NA,1612079573,-22.116,14.2845,17.97,79,100,1.62
252,esperance,AU,1612079573,-33.8667,121.9,27.0,44,0,9.77
253,sangar,RU,1612079574,63.9242,127.4739,-43.41,77,70,2.42
254,mount pleasant,US,1612079377,32.7941,-79.8626,15.0,82,90,5.67
255,leningradskiy,RU,1612079574,69.3833,178.4167,-32.51,82,0,2.12
256,ballina,AU,1612079574,-28.8667,153.5667,26.0,69,40,5.14
257,bathurst,AU,1612079574,-33.4166,149.5806,22.78,71,71,4.91
258,fortuna,US,1612079575,40.5982,-124.1573,12.22,58,90,9.26
259,mogadouro,PT,1612079575,41.3403,-6.7119,8.33,94,100,3.58
260,maxixe,MZ,1612079576,-23.8597,35.3472,31.0,66,40,4.12
261,cosala,MX,1612079576,24.4125,-106.6908,15.0,91,74,0.89
262,itarema,BR,1612079576,-2.9248,-39.9167,24.85,89,100,4.55
263,guerrero negro,MX,1612079577,27.9769,-114.0611,13.01,71,38,0.62
264,ruteng,ID,1612079410,-8.6136,120.4721,22.02,88,100,2.34
265,pringsewu,ID,1612079577,-5.3582,104.9744,28.68,78,99,1.21
266,kirensk,RU,1612079577,57.7853,108.1119,-33.69,81,100,2.51
267,redmond,US,1612079382,47.674,-122.1215,7.22,95,100,3.12
268,beringovskiy,RU,1612079577,63.05,179.3167,-14.19,94,100,13.71
269,sioux lookout,CA,1612079577,50.1001,-91.917,-6.0,93,90,2.06
270,krasnoselkup,RU,1612079577,65.7,82.4667,-28.36,84,100,8.04
271,half moon bay,US,1612079578,37.4636,-122.4286,11.11,71,90,2.57
272,spornoye,RU,1612079578,50.8448,37.2913,1.0,93,90,7.0
273,cooma,AU,1612079578,-36.2333,149.1333,20.0,64,16,7.2
274,irbeyskoye,RU,1612079578,55.6428,95.4522,-29.48,83,6,1.69
275,ajdabiya,LY,1612079578,30.7554,20.2263,17.52,38,0,5.84
276,aswan,EG,1612079578,24.0934,32.907,18.76,26,0,4.27
277,bushehr,IR,1612079578,28.9684,50.8385,17.0,55,0,8.75
278,chumikan,RU,1612079579,54.7183,135.315,-25.22,79,0,12.43
279,chunhuhub,MX,1612079579,19.55,-88.6833,16.58,98,65,0.66
280,luderitz,NA,1612079352,-26.6481,15.1594,21.84,46,0,8.6
281,nemuro,JP,1612079433,43.3236,145.575,-6.0,68,20,2.06
282,airai,TL,1612079579,-8.9266,125.4092,18.69,100,100,2.8
283,cocal,BR,1612079579,-28.6167,-49.35,22.13,82,100,1.37
284,mandalgovi,MN,1612079579,45.7625,106.2708,-16.95,84,0,10.7
285,hasaki,JP,1612079358,35.7333,140.8333,10.0,31,20,4.63
286,yertarskiy,RU,1612079580,56.7902,64.2995,-7.12,95,53,1.05
287,okhotsk,RU,1612079580,59.3833,143.3,-22.45,81,0,6.53
288,naze,JP,1612079580,28.3667,129.4833,17.0,55,20,4.63
289,avera,US,1612079580,33.194,-82.5271,7.0,87,90,2.06
290,camopi,GF,1612079580,3.1655,-52.3158,21.82,98,81,0.89
291,newport,GB,1612079329,51.5877,-2.9984,0.56,93,100,0.45
292,severo-kurilsk,RU,1612079580,50.6789,156.125,-4.13,95,100,17.0
293,gobabis,NA,1612079352,-22.45,18.9667,26.04,49,16,3.59
294,shimoda,JP,1612079581,34.6667,138.95,11.0,46,20,3.09
295,nanortalik,GL,1612079581,60.1432,-45.2371,-2.55,91,100,2.96
296,vila velha,BR,1612079363,-20.3297,-40.2925,24.0,83,0,1.54
297,lebu,CL,1612079581,-37.6167,-73.65,12.86,91,4,4.91
298,kiama,AU,1612079582,-34.6833,150.8667,22.78,92,65,2.98
299,yanam,IN,1612079582,16.7333,82.2167,28.0,61,75,4.63
300,hualmay,PE,1612079397,-11.0964,-77.6139,21.12,78,70,3.7
301,goderich,CA,1612079582,43.7501,-81.7165,-9.0,79,100,1.54
302,conceicao do araguaia,BR,1612079364,-8.2578,-49.2647,21.77,96,100,0.89
303,mehamn,NO,1612079582,71.0357,27.8492,-3.0,86,75,8.23
304,inirida,CO,1612079583,3.8653,-67.9239,23.98,78,76,0.77
305,requena,ES,1612079356,39.4883,-1.1004,13.33,54,20,6.17
306,amazar,RU,1612079583,53.858,120.875,-28.46,82,99,0.55
307,butembo,CD,1612079584,0.15,29.2833,24.53,44,94,1.41
308,nchelenge,ZM,1612079584,-9.3451,28.734,24.57,73,100,1.52
309,taquaritinga,BR,1612079361,-21.4061,-48.5047,21.42,83,100,2.37
310,kirakira,SB,1612079327,-10.4544,161.9205,26.08,86,100,8.58
311,urengoy,RU,1612079381,65.9667,78.3667,-26.92,86,100,8.44
312,stornoway,GB,1612079585,58.2093,-6.3865,1.0,75,70,2.06
313,talnakh,RU,1612079585,69.4865,88.3972,-34.5,71,0,3.42
314,moerai,PF,1612079585,-22.4333,-151.3333,26.82,67,0,2.14
315,beboto,TD,1612079585,8.2668,16.939,28.85,15,0,2.48
316,dingle,PH,1612079585,10.9995,122.6711,26.73,75,98,6.98
317,saldanha,ZA,1612079374,-33.0117,17.9442,20.35,81,89,4.06
318,srednekolymsk,RU,1612079586,67.45,153.6833,-38.84,82,100,2.74
319,lira,UG,1612079586,2.235,32.9097,30.82,21,94,4.34
320,vao,NC,1612079587,-22.6667,167.4833,24.96,79,72,8.96
321,koshurnikovo,RU,1612079587,54.1667,93.3,-21.28,88,28,1.12
322,ambanja,MG,1612079397,-13.6833,48.45,30.0,61,20,2.06
323,the valley,AI,1612079346,18.217,-63.0578,25.0,83,40,4.63
324,isoka,ZM,1612079587,-10.1606,32.6335,23.53,80,100,0.82
325,egvekinot,RU,1612079587,66.3167,-179.1667,-27.74,85,100,6.08
326,macae,BR,1612079588,-22.3708,-41.7869,22.0,94,0,1.03
327,northam,GB,1612079588,51.0333,-4.2167,3.89,89,100,1.34
328,dubbo,AU,1612079214,-32.25,148.6167,22.0,88,75,8.23
329,chimbarongo,CL,1612079589,-34.7,-71.05,17.22,100,75,2.06
330,nizhniy kuranakh,RU,1612079589,58.8353,125.4869,-38.17,80,98,0.51
331,marmande,FR,1612079346,44.5,0.1667,11.11,97,100,3.58
332,buraydah,SA,1612079589,26.326,43.975,14.0,58,0,3.09
333,itupiranga,BR,1612079589,-5.1347,-49.3267,24.0,100,75,2.06
334,moncada,ES,1612079589,39.5456,-0.3955,13.89,58,0,5.14
335,fairbanks,US,1612079589,64.8378,-147.7164,-20.56,77,90,0.62
336,kautokeino,NO,1612079589,69.0125,23.0412,-9.18,96,100,4.88
337,groningen,NL,1612079303,53.25,6.75,-4.44,100,0,0.51
338,mansa,IN,1612079590,29.9833,75.3833,23.91,18,0,1.71
339,kondinskoye,RU,1612079590,59.6481,67.41,-7.91,97,97,3.33
340,nakusp,CA,1612079590,50.2499,-117.8023,0.56,93,100,0.51
341,carmelo,UY,1612079590,-33.9892,-58.2856,17.0,82,90,4.63
342,saskylakh,RU,1612079590,71.9167,114.0833,-35.6,83,100,3.91
343,tulun,RU,1612079590,54.5611,100.5792,-28.21,83,46,1.79
344,oparino,RU,1612079591,59.8518,48.2783,-6.91,97,100,4.35
345,novonukutskiy,RU,1612079591,53.7002,102.7117,-30.11,82,53,3.13
346,san quintin,MX,1612079591,30.4833,-115.95,13.15,78,0,2.15
347,valdivia,CL,1612079376,-39.8142,-73.2459,9.0,100,0,0.51
348,campbellsville,US,1612079591,37.3434,-85.3419,4.44,100,75,6.69
349,alice town,BS,1612079591,25.7167,-79.3,21.18,68,86,7.58
350,spasskoye,RU,1612079591,44.6108,132.7969,-18.6,88,41,1.92
351,mogadishu,SO,1612079591,2.0371,45.3438,28.0,57,40,8.23
352,cabo san lucas,MX,1612079390,22.8909,-109.9124,17.22,83,19,1.79
353,aguimes,ES,1612079592,27.9054,-15.4461,19.44,88,40,7.2
354,sorong,ID,1612079592,-0.8833,131.25,28.01,75,100,4.72
355,palimbang,PH,1612079592,6.2106,124.1894,27.99,69,67,1.78
356,grindavik,IS,1612079592,63.8424,-22.4338,-4.0,93,90,1.54
357,jacqueville,CI,1612079592,5.2052,-4.4146,27.0,94,20,2.57
358,grand gaube,MU,1612079592,-20.0064,57.6608,30.56,65,1,4.02
359,narsaq,GL,1612079593,60.9167,-46.05,4.0,28,75,14.92
360,savinka,RU,1612079593,50.0785,47.0994,-1.15,96,100,6.84
361,mushie,CD,1612079348,-3.0167,16.9,25.7,74,99,1.33
362,taltal,CL,1612079594,-25.4,-70.4833,17.96,77,28,1.43
363,japura,ID,1612079594,-0.3167,102.35,29.84,67,92,1.26
364,rincon,US,1612079594,32.296,-81.2354,15.0,87,90,2.57
365,kulhudhuffushi,MV,1612079594,6.6221,73.07,27.83,69,0,3.65
366,gap,FR,1612079594,44.6667,6.0,0.56,89,75,2.73
367,lamu,KE,1612079594,-2.2717,40.902,29.0,61,20,4.63
368,vila,PT,1612079594,42.0304,-8.1588,9.44,96,100,3.75
369,axim,GH,1612079595,4.8699,-2.2405,27.08,83,46,2.74
370,pevek,RU,1612079595,69.7008,170.3133,-36.31,84,1,1.35
371,ketchikan,US,1612079595,55.3422,-131.6461,-1.0,93,1,2.57
372,andreyevo,RU,1612079595,55.9465,41.1505,0.77,98,100,7.28
373,arlit,NE,1612079595,18.7369,7.3853,19.46,20,0,1.37
374,uvira,CD,1612079348,-3.4067,29.1458,26.0,65,75,3.09
375,margate,GB,1612079387,51.3813,1.3862,3.33,68,100,0.89
376,savalou,BJ,1612079456,7.9281,1.9756,27.48,71,20,0.2
377,pangody,RU,1612079596,65.85,74.4859,-25.44,89,100,8.36
378,camacha,PT,1612079596,33.0833,-16.3333,14.0,88,0,3.09
379,gornopravdinsk,RU,1612079596,60.05,69.9,-8.82,96,100,3.83
380,zhezkazgan,KZ,1612079596,47.8043,67.7144,-4.75,95,77,2.78
381,magione,IT,1612079596,43.1439,12.2069,9.44,87,90,2.12
382,trinidad,BO,1612079596,-14.8333,-64.9,22.68,96,61,1.69
383,san carlos de bariloche,AR,1612079596,-41.1456,-71.3082,11.0,76,40,2.57
384,yelovo,RU,1612079597,57.0538,54.9207,-3.49,97,99,4.84
385,hervey bay,AU,1612079597,-25.2986,152.8535,29.0,54,0,7.72
386,los llanos de aridane,ES,1612079597,28.6585,-17.9182,17.0,94,75,5.14
387,vegreville,CA,1612079597,53.5001,-112.0518,-19.0,84,0,2.06
388,sao joao da barra,BR,1612079362,-21.6403,-41.0511,23.59,85,20,6.89
389,saint-joseph,RE,1612079597,-21.3667,55.6167,32.0,58,0,11.83
390,sabang,ID,1612079396,5.8933,95.3214,27.26,78,26,9.91
391,ilulissat,GL,1612079598,69.2167,-51.1,-13.0,61,90,6.17
392,bathsheba,BB,1612079598,13.2167,-59.5167,26.0,73,40,8.23
393,hamilton,US,1612079408,39.1834,-84.5333,1.11,93,90,2.06
394,mayumba,GA,1612079599,-3.432,10.6554,26.54,82,96,0.61
395,kavaratti,IN,1612079323,10.5669,72.642,27.44,74,1,5.37
396,meadow lake,US,1612079599,34.8014,-106.5436,0.0,69,1,1.54
397,nizhneangarsk,RU,1612079599,55.7833,109.55,-25.81,81,80,1.02
398,chicama,PE,1612079599,-7.8447,-79.1469,22.72,65,29,2.45
399,sakakah,SA,1612079599,29.9697,40.2064,14.0,33,0,6.17
400,aklavik,CA,1612079599,68.2191,-135.0107,-33.0,75,100,3.46
401,lima,PE,1612079326,-12.0432,-77.0282,21.67,83,0,3.6
402,hofn,IS,1612079343,64.2539,-15.2082,-3.23,87,91,5.06
403,san cristobal,VE,1612079355,7.7669,-72.225,17.5,72,66,1.16
404,songjianghe,CN,1612079600,42.1859,127.479,-3.54,91,54,2.71
405,chimbote,PE,1612079600,-9.0853,-78.5783,21.15,76,98,2.86
406,mersing,MY,1612079325,2.4312,103.8405,29.0,79,40,4.12
407,taoudenni,ML,1612079600,22.6783,-3.9836,18.7,25,0,1.19
408,yining,CN,1612079600,29.0361,114.5636,9.97,84,96,0.34
409,volga,RU,1612079600,57.9516,38.3879,-5.37,98,100,1.9
410,paamiut,GL,1612079601,61.994,-49.6678,-5.61,89,0,4.99
411,omboue,GA,1612079601,-1.5746,9.2618,25.79,83,99,2.27
412,yar-sale,RU,1612079601,66.8333,70.8333,-24.76,88,100,6.79
413,sibolga,ID,1612079602,1.7427,98.7792,30.2,65,52,3.31
414,haines junction,CA,1612079602,60.7522,-137.5108,-29.0,76,91,0.06
415,sitamau,IN,1612079509,24.0167,75.35,24.73,17,0,2.06
416,tigil,RU,1612079603,57.8,158.6667,-18.55,92,100,2.15
417,sabzevar,IR,1612079603,36.2126,57.6819,11.0,40,0,6.17
418,kaitong,CN,1612079603,44.8135,123.15,-13.1,95,100,2.96
419,matara,LK,1612079603,5.9485,80.5353,30.56,63,1,5.46
420,russell,US,1612079603,32.3502,-85.1999,11.67,66,90,3.09
421,mount gambier,AU,1612079317,-37.8333,140.7667,21.0,49,0,7.2
422,lasa,IT,1612079353,46.6166,10.7002,1.11,93,20,2.57
423,hobyo,SO,1612079603,5.3505,48.5268,26.81,58,5,7.82
424,toora-khem,RU,1612079603,52.4675,96.11,-19.06,85,99,0.54
425,carauari,BR,1612079362,-4.8828,-66.8958,22.46,98,99,0.85
426,quesnel,CA,1612079604,52.9999,-122.5029,-8.0,93,20,0.98
427,sao jose da coroa grande,BR,1612079604,-8.8978,-35.1478,24.85,81,89,2.63
428,rongcheng,CN,1612079604,30.634,117.8517,10.38,74,100,1.17
429,basco,PH,1612079604,20.4487,121.9702,21.23,70,100,11.74
430,caetite,BR,1612079604,-14.0694,-42.475,17.14,96,28,3.5
431,arman,RU,1612079604,59.7,150.1667,-26.35,76,6,7.22
432,bilma,NE,1612079604,18.6853,12.9164,20.2,21,0,2.47
433,palmer,US,1612079605,42.1584,-72.3287,-14.0,66,1,2.57
434,tsabong,BW,1612079605,-26.0217,22.401,29.36,42,0,3.05
435,morondava,MG,1612079397,-20.2833,44.2833,29.98,63,0,1.79
436,rio gallegos,AR,1612079605,-51.6226,-69.2181,7.0,70,0,3.6
437,san felipe,VE,1612079595,10.3399,-68.7425,20.97,89,96,1.64
438,bauchi,NG,1612079505,10.5,10.0,22.5,21,0,2.48
439,tazovskiy,RU,1612079605,67.4667,78.7,-28.89,87,100,8.74
440,syracuse,IT,1612079606,37.0881,15.2792,13.89,87,40,1.54
441,guane,CU,1612079606,22.2025,-84.0875,17.79,87,92,3.42
442,dhidhdhoo,MV,1612079606,6.8833,73.1,27.87,69,0,3.64
443,chapais,CA,1612079607,49.7834,-74.8492,-22.0,92,90,2.06
444,inhambane,MZ,1612079607,-23.865,35.3833,31.0,66,40,4.12
445,fernie,CA,1612079607,49.5,-115.0687,-1.0,86,100,3.09
446,te anau,NZ,1612079420,-45.4167,167.7167,12.42,80,100,2.31
447,flinders,AU,1612079607,-34.5833,150.8552,22.78,81,79,0.89
448,ahuimanu,US,1612079607,21.4447,-157.8378,23.0,68,20,6.17
449,vaitape,PF,1612079607,-16.5167,-151.75,27.87,72,100,5.49
450,almeirim,BR,1612079364,-1.5233,-52.5817,21.78,97,37,1.06
451,paciran,ID,1612079396,-6.8767,112.3761,28.8,77,87,8.1
452,vilhena,BR,1612079363,-12.7406,-60.1458,20.25,97,100,1.92
453,dryden,CA,1612079608,49.7833,-92.7503,-5.0,93,90,3.6
454,fethiye,TR,1612079366,36.6217,29.1164,10.0,87,0,3.6
455,shenjiamen,CN,1612079367,29.9576,122.298,12.82,81,74,6.76
456,florianopolis,BR,1612079608,-27.6146,-48.5012,26.0,89,0,1.54
457,pristen,RU,1612079608,51.2355,36.6959,1.0,100,90,7.0
458,vanimo,PG,1612079609,-2.6741,141.3028,27.94,75,47,5.34
459,igrim,RU,1612079609,63.1906,64.4162,-20.51,90,100,0.81
460,flin flon,CA,1612079609,54.7682,-101.865,-17.34,93,45,1.49
461,vidalia,US,1612079609,32.2177,-82.4135,10.0,76,90,2.94
462,xuddur,SO,1612079609,4.1213,43.8894,29.35,29,0,8.21
463,aasiaat,GL,1612079609,68.7098,-52.8699,-19.51,91,87,2.71
464,iralaya,HN,1612079609,15.0,-83.2333,24.55,83,21,3.75
465,de-kastri,RU,1612079610,51.4667,140.7833,-20.35,86,100,2.03
466,manokwari,ID,1612079323,-0.8667,134.0833,26.47,81,100,6.15
467,asau,RO,1612079610,46.4333,26.4,0.0,74,75,4.63
468,villazon,BO,1612079352,-22.0866,-65.5942,10.73,74,0,1.78
469,atar,MR,1612079388,20.5169,-13.0499,17.69,27,8,3.67
470,kununurra,AU,1612079610,-15.7667,128.7333,28.0,94,75,5.66
471,amuntai,ID,1612079396,-2.4177,115.2494,31.57,62,99,1.01
472,khuzhir,RU,1612079611,53.1939,107.3397,-24.8,77,13,4.0
473,maniitsoq,GL,1612079611,65.4167,-52.9,-12.19,75,0,2.68
474,mongagua,BR,1612079361,-24.0931,-46.6208,28.33,78,100,1.54
475,palu,ID,1612079611,-0.8917,119.8707,28.52,67,100,2.03
476,bella union,UY,1612079611,-30.2752,-57.6007,19.83,93,23,4.72
477,buluang,PH,1612079611,13.3068,123.3425,27.19,67,24,3.83
478,mukhen,RU,1612079612,48.1,136.1,-23.55,85,27,2.78
479,comonfort,MX,1612079391,20.7167,-100.7667,13.33,53,1,0.17
480,huarmey,PE,1612079613,-10.0681,-78.1522,21.43,75,90,4.15
481,pokaran,IN,1612079613,26.9167,71.9167,26.74,12,0,3.15
482,sur,OM,1612079389,22.5667,59.5289,24.9,40,0,2.97
483,nueva gorgona,PA,1612079613,8.55,-79.8667,26.67,98,100,7.02
484,sechura,PE,1612079397,-5.5569,-80.8222,24.1,65,28,4.39
485,cayenne,GF,1612079561,4.9333,-52.3333,26.0,89,75,3.6
486,zhetysay,KZ,1612079614,40.7333,68.3,14.9,30,97,6.91
487,phonhong,LA,1612079614,18.5007,102.4166,29.0,42,20,2.06
488,san policarpo,PH,1612079614,12.1791,125.5072,26.41,78,99,8.11
489,kouroussa,GN,1612079614,10.65,-9.8833,19.24,25,13,0.09
490,la palma,US,1612079614,33.8464,-118.0467,11.67,76,1,1.82
491,anadyr,RU,1612079131,64.75,177.4833,-20.0,84,75,9.0
492,tahta,EG,1612079372,26.7693,31.5021,13.0,44,0,2.06
493,faya,SA,1612079614,18.3851,42.4509,21.0,26,0,2.06
494,chakulia,IN,1612079615,22.4833,86.7167,23.0,18,0,2.06
495,stamford,US,1612079615,41.0534,-73.5387,-7.22,62,1,3.6
496,chimoio,MZ,1612079615,-19.1164,33.4833,26.15,78,89,1.49
497,karasjok,NO,1612079615,69.4719,25.5112,-6.0,93,90,4.12
498,pran buri,TH,1612079615,12.3847,99.9098,29.0,61,5,4.12
499,ginir,ET,1612079332,7.1333,40.7,22.11,22,37,3.56
500,ravar,IR,1612079615,31.2656,56.8055,16.23,29,0,0.35
501,gamboma,CG,1612079615,-1.8764,15.8644,24.04,78,100,1.55
502,ust-tsilma,RU,1612079616,65.441,52.1498,-9.65,95,99,3.97
503,kailahun,SL,1612079616,8.2833,-10.5667,21.23,91,43,0.48
504,copiapo,CL,1612079376,-27.3667,-70.3333,17.0,88,90,2.06
505,pottsville,US,1612079616,40.6857,-76.1955,-5.56,78,100,1.42
506,basti,IN,1612079616,26.8,82.7167,20.59,33,0,2.27
507,ponta do sol,PT,1612079616,32.6667,-17.1,13.89,75,1,1.34
508,gat,IL,1612079616,31.61,34.7642,17.22,50,0,1.34
509,zamosc,PL,1612079617,50.7231,23.252,-4.0,86,75,3.09
510,zyryanskoye,RU,1612079617,56.8306,86.6258,-25.25,86,92,3.53
511,moree,AU,1612079617,-29.4667,149.85,36.0,21,32,5.66
512,stabat,ID,1612079617,3.761,98.4513,29.0,84,75,1.54
513,srandakan,ID,1612079617,-7.9386,110.2506,29.35,68,100,3.59
514,sindor,RU,1612079618,62.8629,51.8905,-7.07,96,100,3.93
515,kishtwar,IN,1612079618,33.3167,75.7667,13.43,31,0,1.46
516,zyryanka,RU,1612079618,65.75,150.85,-32.76,84,100,7.51
517,vestmannaeyjar,IS,1612079618,63.4427,-20.2734,-0.75,92,100,7.51
518,cheremukhovo,RU,1612079618,60.3484,59.9851,-18.85,91,97,1.16
519,prieska,ZA,1612079618,-29.6641,22.7474,29.33,13,0,2.59
520,fria,GN,1612079618,10.4167,-13.5833,19.32,80,100,0.84
